{
"type": "FeatureCollection",
"name": "deepstatemap_data_20240930_points",
"crs": { "type": "name", "properties": { "name": "urn:ogc:def:crs:OGC:1.3:CRS84" } },
"features": [
{ "type": "Feature", "properties": { "name": "Russian cruiser Moskva" }, "geometry": { "type": "Point", "coordinates": [ 30.925149, 45.178719 ] } },
{ "type": "Feature", "properties": { "name": "Direction of attack" }, "geometry": { "type": "Point", "coordinates": [ 37.409988, 47.994278 ] } },
{ "type": "Feature", "properties": { "name": "Direction of attack" }, "geometry": { "type": "Point", "coordinates": [ 37.290766, 47.820877 ] } },
{ "type": "Feature", "properties": { "name": "Direction of attack" }, "geometry": { "type": "Point", "coordinates": [ 35.81145, 47.448073 ] } },
{ "type": "Feature", "properties": { "name": "Direction of attack" }, "geometry": { "type": "Point", "coordinates": [ 37.751032, 49.53549 ] } },
{ "type": "Feature", "properties": { "name": "Kyiv" }, "geometry": { "type": "Point", "coordinates": [ 30.524239, 50.450062 ] } },
{ "type": "Feature", "properties": { "name": "Minsk" }, "geometry": { "type": "Point", "coordinates": [ 27.558868, 53.902162 ] } },
{ "type": "Feature", "properties": { "name": "Moscow" }, "geometry": { "type": "Point", "coordinates": [ 37.62011, 55.758266 ] } },
{ "type": "Feature", "properties": { "name": "Direction of attack" }, "geometry": { "type": "Point", "coordinates": [ 36.660605, 47.739531 ] } },
{ "type": "Feature", "properties": { "name": "Direction of attack" }, "geometry": { "type": "Point", "coordinates": [ 37.352235, 48.233717 ] } },
{ "type": "Feature", "properties": { "name": "Places of concentration of illegal armed formations of the self-proclaimed republic of Belarus" }, "geometry": { "type": "Point", "coordinates": [ 31.288405, 52.339663 ] } },
{ "type": "Feature", "properties": { "name": "Places of concentration of illegal armed formations of the self-proclaimed republic of Belarus" }, "geometry": { "type": "Point", "coordinates": [ 29.158879, 51.784771 ] } },
{ "type": "Feature", "properties": { "name": "Places of concentration of illegal armed formations of the self-proclaimed republic of Belarus" }, "geometry": { "type": "Point", "coordinates": [ 24.37502, 52.231624 ] } },
{ "type": "Feature", "properties": { "name": "Places of concentration of illegal armed formations of the self-proclaimed republic of Belarus at the \"Lepelsky\" training ground" }, "geometry": { "type": "Point", "coordinates": [ 28.926587, 54.883042 ] } },
{ "type": "Feature", "properties": { "name": "Direction of attack" }, "geometry": { "type": "Point", "coordinates": [ 37.419333, 47.969858 ] } },
{ "type": "Feature", "properties": { "name": "Direction of attack" }, "geometry": { "type": "Point", "coordinates": [ 37.907366, 49.475643 ] } },
{ "type": "Feature", "properties": { "name": "Direction of attack" }, "geometry": { "type": "Point", "coordinates": [ 38.26762, 48.930674 ] } },
{ "type": "Feature", "properties": { "name": "Direction of attack" }, "geometry": { "type": "Point", "coordinates": [ 37.348104, 48.142611 ] } },
{ "type": "Feature", "properties": { "name": "Direction of attack" }, "geometry": { "type": "Point", "coordinates": [ 37.336477, 48.075572 ] } },
{ "type": "Feature", "properties": { "name": "38th Separate Guards Air Assault Brigade" }, "geometry": { "type": "Point", "coordinates": [ 26.097294, 52.147995 ] } },
{ "type": "Feature", "properties": { "name": "5th Spetsnaz Brigade" }, "geometry": { "type": "Point", "coordinates": [ 23.75172, 52.109865 ] } },
{ "type": "Feature", "properties": { "name": "Direction of attack" }, "geometry": { "type": "Point", "coordinates": [ 37.490586, 48.049544 ] } },
{ "type": "Feature", "properties": { "name": "Direction of attack" }, "geometry": { "type": "Point", "coordinates": [ 37.305408, 48.107108 ] } },
{ "type": "Feature", "properties": { "name": "Direction of attack" }, "geometry": { "type": "Point", "coordinates": [ 37.333258, 48.172748 ] } },
{ "type": "Feature", "properties": { "name": "Direction of attack" }, "geometry": { "type": "Point", "coordinates": [ 37.874768, 48.581889 ] } },
{ "type": "Feature", "properties": { "name": "Direction of attack" }, "geometry": { "type": "Point", "coordinates": [ 37.86933, 48.592667 ] } },
{ "type": "Feature", "properties": { "name": "Direction of attack" }, "geometry": { "type": "Point", "coordinates": [ 37.285823, 48.212411 ] } },
{ "type": "Feature", "properties": { "name": "Direction of attack" }, "geometry": { "type": "Point", "coordinates": [ 37.403266, 47.864941 ] } },
{ "type": "Feature", "properties": { "name": "Direction of attack" }, "geometry": { "type": "Point", "coordinates": [ 37.366871, 48.099052 ] } },
{ "type": "Feature", "properties": { "name": "Direction of attack" }, "geometry": { "type": "Point", "coordinates": [ 33.029657, 46.722167 ] } },
{ "type": "Feature", "properties": { "name": "Direction of attack" }, "geometry": { "type": "Point", "coordinates": [ 37.819943, 48.338937 ] } },
{ "type": "Feature", "properties": { "name": "Orban's pro-Russian regime" }, "geometry": { "type": "Point", "coordinates": [ 19.047392, 47.506875 ] } },
{ "type": "Feature", "properties": { "name": "Direction of attack" }, "geometry": { "type": "Point", "coordinates": [ 37.985887, 48.516954 ] } },
{ "type": "Feature", "properties": { "name": "Direction of attack" }, "geometry": { "type": "Point", "coordinates": [ 35.908568, 47.441996 ] } },
{ "type": "Feature", "properties": { "name": "Direction of attack" }, "geometry": { "type": "Point", "coordinates": [ 38.181429, 48.787105 ] } },
{ "type": "Feature", "properties": { "name": "Direction of attack" }, "geometry": { "type": "Point", "coordinates": [ 35.833724, 47.439188 ] } },
{ "type": "Feature", "properties": { "name": "Direction of attack" }, "geometry": { "type": "Point", "coordinates": [ 35.929713, 47.469183 ] } },
{ "type": "Feature", "properties": { "name": "Direction of attack" }, "geometry": { "type": "Point", "coordinates": [ 37.262499, 47.774866 ] } },
{ "type": "Feature", "properties": { "name": "Direction of attack" }, "geometry": { "type": "Point", "coordinates": [ 37.426945, 48.075443 ] } },
{ "type": "Feature", "properties": { "name": "103rd Separate Guards Airborne Brigade" }, "geometry": { "type": "Point", "coordinates": [ 30.275723, 51.777426 ] } },
{ "type": "Feature", "properties": { "name": "Direction of attack" }, "geometry": { "type": "Point", "coordinates": [ 37.857756, 48.392207 ] } },
{ "type": "Feature", "properties": { "name": "Direction of attack" }, "geometry": { "type": "Point", "coordinates": [ 37.850481, 48.609578 ] } },
{ "type": "Feature", "properties": { "name": "Direction of attack" }, "geometry": { "type": "Point", "coordinates": [ 38.074057, 48.768344 ] } },
{ "type": "Feature", "properties": { "name": "Direction of attack" }, "geometry": { "type": "Point", "coordinates": [ 35.867187, 47.425932 ] } },
{ "type": "Feature", "properties": { "name": "Direction of attack" }, "geometry": { "type": "Point", "coordinates": [ 37.379476, 48.073077 ] } },
{ "type": "Feature", "properties": { "name": "Direction of attack" }, "geometry": { "type": "Point", "coordinates": [ 37.376765, 47.990651 ] } },
{ "type": "Feature", "properties": { "name": "Direction of attack" }, "geometry": { "type": "Point", "coordinates": [ 33.045912, 46.73238 ] } },
{ "type": "Feature", "properties": { "name": "Direction of attack" }, "geometry": { "type": "Point", "coordinates": [ 36.820639, 47.759846 ] } },
{ "type": "Feature", "properties": { "name": "Direction of attack" }, "geometry": { "type": "Point", "coordinates": [ 36.797582, 47.758356 ] } },
{ "type": "Feature", "properties": { "name": "Direction of attack" }, "geometry": { "type": "Point", "coordinates": [ 37.888758, 49.660964 ] } },
{ "type": "Feature", "properties": { "name": "Direction of attack" }, "geometry": { "type": "Point", "coordinates": [ 37.978143, 49.227026 ] } },
{ "type": "Feature", "properties": { "name": "Direction of attack" }, "geometry": { "type": "Point", "coordinates": [ 37.868974, 48.385744 ] } },
{ "type": "Feature", "properties": { "name": "Direction of attack" }, "geometry": { "type": "Point", "coordinates": [ 37.874492, 48.397707 ] } },
{ "type": "Feature", "properties": { "name": "Direction of attack" }, "geometry": { "type": "Point", "coordinates": [ 37.76732, 49.565085 ] } },
{ "type": "Feature", "properties": { "name": "Direction of attack" }, "geometry": { "type": "Point", "coordinates": [ 37.690786, 49.766352 ] } },
{ "type": "Feature", "properties": { "name": "Direction of attack" }, "geometry": { "type": "Point", "coordinates": [ 37.979609, 49.156961 ] } },
{ "type": "Feature", "properties": { "name": "Direction of attack" }, "geometry": { "type": "Point", "coordinates": [ 37.79819, 48.326859 ] } },
{ "type": "Feature", "properties": { "name": "Direction of attack" }, "geometry": { "type": "Point", "coordinates": [ 37.847542, 48.349109 ] } },
{ "type": "Feature", "properties": { "name": "Direction of attack" }, "geometry": { "type": "Point", "coordinates": [ 37.792942, 48.298285 ] } },
{ "type": "Feature", "properties": { "name": "Direction of attack" }, "geometry": { "type": "Point", "coordinates": [ 37.893249, 48.404667 ] } },
{ "type": "Feature", "properties": { "name": "Direction of attack" }, "geometry": { "type": "Point", "coordinates": [ 37.35497, 48.157661 ] } },
{ "type": "Feature", "properties": { "name": "Direction of attack" }, "geometry": { "type": "Point", "coordinates": [ 37.377427, 48.260325 ] } },
{ "type": "Feature", "properties": { "name": "Direction of attack" }, "geometry": { "type": "Point", "coordinates": [ 37.327696, 48.250314 ] } },
{ "type": "Feature", "properties": { "name": "Direction of attack" }, "geometry": { "type": "Point", "coordinates": [ 37.423097, 48.285151 ] } },
{ "type": "Feature", "properties": { "name": "Direction of attack" }, "geometry": { "type": "Point", "coordinates": [ 37.868746, 48.367371 ] } },
{ "type": "Feature", "properties": { "name": "Direction of attack" }, "geometry": { "type": "Point", "coordinates": [ 37.218437, 47.782975 ] } },
{ "type": "Feature", "properties": { "name": "Saki airfield (Sign. LESNOY). 43rd Fighter Aviation Regiment of the air forces of Russia" }, "geometry": { "type": "Point", "coordinates": [ 33.598022, 45.093629 ] } },
{ "type": "Feature", "properties": { "name": "Belbek Airport (Sign. ALMA)." }, "geometry": { "type": "Point", "coordinates": [ 33.574362, 44.692198 ] } },
{ "type": "Feature", "properties": { "name": "Airfield Kacha (Sign BEGOVOY)" }, "geometry": { "type": "Point", "coordinates": [ 33.567228, 44.777549 ] } },
{ "type": "Feature", "properties": { "name": "Gvardiyske Airfield (Sign Korshun)" }, "geometry": { "type": "Point", "coordinates": [ 33.979854, 45.116553 ] } },
{ "type": "Feature", "properties": { "name": "Dzhankoi Airport (Sign BATAREYA)" }, "geometry": { "type": "Point", "coordinates": [ 34.42241, 45.70358 ] } },
{ "type": "Feature", "properties": { "name": "Tiraspol Airport (Sign HRIBET)" }, "geometry": { "type": "Point", "coordinates": [ 29.587907, 46.8723 ] } },
{ "type": "Feature", "properties": { "name": "Machulishi Airport (Sign. HORNOSTAY)" }, "geometry": { "type": "Point", "coordinates": [ 27.57997, 53.773954 ] } },
{ "type": "Feature", "properties": { "name": "Zyabrovka airfield (Sign. Koraloviy)" }, "geometry": { "type": "Point", "coordinates": [ 31.164351, 52.30536 ] } },
{ "type": "Feature", "properties": { "name": "Gomel airport" }, "geometry": { "type": "Point", "coordinates": [ 31.018087, 52.526253 ] } },
{ "type": "Feature", "properties": { "name": "Mozyr Airport" }, "geometry": { "type": "Point", "coordinates": [ 29.164755, 51.982189 ] } },
{ "type": "Feature", "properties": { "name": "Beriosa Airfield (Sign. RADIALNYI)" }, "geometry": { "type": "Point", "coordinates": [ 24.88236, 52.560477 ] } },
{ "type": "Feature", "properties": { "name": "Vitebsk airfield (Sign. ISKORKA)" }, "geometry": { "type": "Point", "coordinates": [ 30.246165, 55.255587 ] } },
{ "type": "Feature", "properties": { "name": "Bobruisk airfield (Sign. BAKLAN)" }, "geometry": { "type": "Point", "coordinates": [ 29.204912, 53.101765 ] } },
{ "type": "Feature", "properties": { "name": "Lida Airfield (Sign. UNIKALNIY)" }, "geometry": { "type": "Point", "coordinates": [ 25.371359, 53.880687 ] } },
{ "type": "Feature", "properties": { "name": "Baranovichi Airfield (Sign. KEDROVY)" }, "geometry": { "type": "Point", "coordinates": [ 26.045057, 53.095992 ] } },
{ "type": "Feature", "properties": { "name": "Luninets airfield (Sign. ATARA)" }, "geometry": { "type": "Point", "coordinates": [ 26.733302, 52.318226 ] } },
{ "type": "Feature", "properties": { "name": "Seshcha Airport (Sign. KEDR)" }, "geometry": { "type": "Point", "coordinates": [ 33.339321, 53.720537 ] } },
{ "type": "Feature", "properties": { "name": "Millerovo airfield (Sign. PARADNY)" }, "geometry": { "type": "Point", "coordinates": [ 40.28877, 48.955616 ] } },
{ "type": "Feature", "properties": { "name": "Morozovsk Airport (Sign MUSTANG)" }, "geometry": { "type": "Point", "coordinates": [ 41.798186, 48.327332 ] } },
{ "type": "Feature", "properties": { "name": "Zimnyanskiy Aerodrome (Beketovka)" }, "geometry": { "type": "Point", "coordinates": [ 44.363928, 48.559586 ] } },
{ "type": "Feature", "properties": { "name": "Aerodrome Rostov-center (Sign. DOROZHNY)" }, "geometry": { "type": "Point", "coordinates": [ 39.637407, 47.276923 ] } },
{ "type": "Feature", "properties": { "name": "Zernograd airfield (Pos. Voronoi, Kaima. Call signs are changing)" }, "geometry": { "type": "Point", "coordinates": [ 40.376951, 46.841103 ] } },
{ "type": "Feature", "properties": { "name": "Chaplinka airfield" }, "geometry": { "type": "Point", "coordinates": [ 33.541932, 46.346332 ] } },
{ "type": "Feature", "properties": { "name": "Engels Airfield (Sign. KARAKUL)" }, "geometry": { "type": "Point", "coordinates": [ 46.212101, 51.487345 ] } },
{ "type": "Feature", "properties": { "name": "Sokol Airport (Sign. Uryuk)" }, "geometry": { "type": "Point", "coordinates": [ 45.84545, 51.547932 ] } },
{ "type": "Feature", "properties": { "name": "Yeisk Airfield (Sign. Vulcan)" }, "geometry": { "type": "Point", "coordinates": [ 38.212094, 46.679169 ] } },
{ "type": "Feature", "properties": { "name": "Primorsko-Akhtarsk airfield (Sign. TONALNY)" }, "geometry": { "type": "Point", "coordinates": [ 38.231999, 46.059364 ] } },
{ "type": "Feature", "properties": { "name": "Crimean airfield (Sign. TAYMYR)" }, "geometry": { "type": "Point", "coordinates": [ 37.991956, 44.959718 ] } },
{ "type": "Feature", "properties": { "name": "Krasnodar Center Airport (Sign. Volokno)" }, "geometry": { "type": "Point", "coordinates": [ 38.952684, 45.083738 ] } },
{ "type": "Feature", "properties": { "name": "Korenivsk Airfield (Sign. ATAMAN)" }, "geometry": { "type": "Point", "coordinates": [ 39.415993, 45.449654 ] } },
{ "type": "Feature", "properties": { "name": "Kushchevskaya Airport (Sign. Komandor)" }, "geometry": { "type": "Point", "coordinates": [ 39.548847, 46.54051 ] } },
{ "type": "Feature", "properties": { "name": "Budyonnovsk airfield (Sign. KAZACHOK). 368th Assault Regiment" }, "geometry": { "type": "Point", "coordinates": [ 43.795557, 44.964895 ] } },
{ "type": "Feature", "properties": { "name": "Shatalovo airfield (Sign. Nozhnytsy)" }, "geometry": { "type": "Point", "coordinates": [ 32.47475, 54.336251 ] } },
{ "type": "Feature", "properties": { "name": "Shaikovka airfield (Sign. Rechnoy)" }, "geometry": { "type": "Point", "coordinates": [ 34.374478, 54.239626 ] } },
{ "type": "Feature", "properties": { "name": "Lipetsk Airport 2 (Sign. VORSOVKA)" }, "geometry": { "type": "Point", "coordinates": [ 39.436246, 52.655105 ] } },
{ "type": "Feature", "properties": { "name": "Voronezh Airport (Sign. BALTIMOR)" }, "geometry": { "type": "Point", "coordinates": [ 39.138887, 51.622398 ] } },
{ "type": "Feature", "properties": { "name": "Buturlynivka airfield (Sign. Pryrodny)" }, "geometry": { "type": "Point", "coordinates": [ 40.597546, 50.802108 ] } },
{ "type": "Feature", "properties": { "name": "Airfield Stariy Oskol (Sign. OSKOL)" }, "geometry": { "type": "Point", "coordinates": [ 37.768637, 51.325818 ] } },
{ "type": "Feature", "properties": { "name": "Tomarovka Airport" }, "geometry": { "type": "Point", "coordinates": [ 36.291572, 50.693833 ] } },
{ "type": "Feature", "properties": { "name": "Melitopol airfield" }, "geometry": { "type": "Point", "coordinates": [ 35.300794, 46.885032 ] } },
{ "type": "Feature", "properties": { "name": "Taganrog-center Air Base (Sign. QUARTET)" }, "geometry": { "type": "Point", "coordinates": [ 38.84709, 47.245576 ] } },
{ "type": "Feature", "properties": { "name": "Berdyansk Airport" }, "geometry": { "type": "Point", "coordinates": [ 36.76262, 46.814746 ] } },
{ "type": "Feature", "properties": { "name": "Armavir airfield (Sign. BURAV)." }, "geometry": { "type": "Point", "coordinates": [ 41.116704, 44.967975 ] } },
{ "type": "Feature", "properties": { "name": "Tikhoretsk Airport (Sign. Magistr)" }, "geometry": { "type": "Point", "coordinates": [ 40.105308, 45.879937 ] } },
{ "type": "Feature", "properties": { "name": "Borisoglebsk airfield (Sign. OTVESNY)" }, "geometry": { "type": "Point", "coordinates": [ 42.182128, 51.372193 ] } },
{ "type": "Feature", "properties": { "name": "Kirovskoye airfield" }, "geometry": { "type": "Point", "coordinates": [ 35.168827, 45.171618 ] } },
{ "type": "Feature", "properties": { "name": "Helicopter base (Existed from May to September 2022)" }, "geometry": { "type": "Point", "coordinates": [ 37.912368, 50.467527 ] } },
{ "type": "Feature", "properties": { "name": "Aerodrom Marinovka (Sign. PAMYATNY)" }, "geometry": { "type": "Point", "coordinates": [ 43.796308, 48.650857 ] } },
{ "type": "Feature", "properties": { "name": "Halino Aerodrom (Sign. Vostochny)" }, "geometry": { "type": "Point", "coordinates": [ 36.295822, 51.755714 ] } },
{ "type": "Feature", "properties": { "name": "Air Base Ostrov" }, "geometry": { "type": "Point", "coordinates": [ 28.421175, 57.291591 ] } },
{ "type": "Feature", "properties": { "name": "Akhtubinsk Aerodrom" }, "geometry": { "type": "Point", "coordinates": [ 46.202434, 48.308623 ] } },
{ "type": "Feature", "properties": { "name": "Volgograd International Airport" }, "geometry": { "type": "Point", "coordinates": [ 44.343868, 48.785167 ] } },
{ "type": "Feature", "properties": { "name": "Airport «Vytyazevo»" }, "geometry": { "type": "Point", "coordinates": [ 37.341172, 45.002818 ] } },
{ "type": "Feature", "properties": { "name": "Soltsy-2 (air base)" }, "geometry": { "type": "Point", "coordinates": [ 30.330756, 58.147694 ] } },
{ "type": "Feature", "properties": { "name": "7th separate reconnaissance battalion  from the 47th TD" }, "geometry": { "type": "Point", "coordinates": [ 38.151319, 49.0111 ] } },
{ "type": "Feature", "properties": { "name": "Voluntary reconnaissance and assault brigade \"Alexander Nevsky\"" }, "geometry": { "type": "Point", "coordinates": [ 36.925148, 50.329346 ] } },
{ "type": "Feature", "properties": { "name": "7th separate motorized rifle brigade" }, "geometry": { "type": "Point", "coordinates": [ 38.296644, 48.923816 ] } },
{ "type": "Feature", "properties": { "name": "41st Combined Arms Army" }, "geometry": { "type": "Point", "coordinates": [ 38.900287, 49.293502 ] } },
{ "type": "Feature", "properties": { "name": "5nd squad BARS" }, "geometry": { "type": "Point", "coordinates": [ 37.969827, 49.473927 ] } },
{ "type": "Feature", "properties": { "name": "20th combined-arms army" }, "geometry": { "type": "Point", "coordinates": [ 39.620551, 49.1203 ] } },
{ "type": "Feature", "properties": { "name": "3rd Motor Rifle Division" }, "geometry": { "type": "Point", "coordinates": [ 38.1362, 49.218675 ] } },
{ "type": "Feature", "properties": { "name": "144th Guards Motor Rifle Division" }, "geometry": { "type": "Point", "coordinates": [ 38.142916, 49.051087 ] } },
{ "type": "Feature", "properties": { "name": "488th Motor Rifle Regiment (from the composition of 144 MRD)" }, "geometry": { "type": "Point", "coordinates": [ 35.727699, 51.078208 ] } },
{ "type": "Feature", "properties": { "name": "1431st motorized rifle regiment of territorial troops" }, "geometry": { "type": "Point", "coordinates": [ 37.915647, 49.607572 ] } },
{ "type": "Feature", "properties": { "name": "4th Guards Tank Division" }, "geometry": { "type": "Point", "coordinates": [ 38.143915, 49.430217 ] } },
{ "type": "Feature", "properties": { "name": "90th tank division" }, "geometry": { "type": "Point", "coordinates": [ 37.420036, 48.134717 ] } },
{ "type": "Feature", "properties": { "name": "423rd Guards Yampolsky Motor Rifle Regiment" }, "geometry": { "type": "Point", "coordinates": [ 38.040229, 49.386881 ] } },
{ "type": "Feature", "properties": { "name": "7nd squad BARS" }, "geometry": { "type": "Point", "coordinates": [ 38.275983, 48.977845 ] } },
{ "type": "Feature", "properties": { "name": "27th Separate Guards Motor Rifle Brigade" }, "geometry": { "type": "Point", "coordinates": [ 37.989845, 49.508538 ] } },
{ "type": "Feature", "properties": { "name": "2nd motorized rifle division from the 1st TA" }, "geometry": { "type": "Point", "coordinates": [ 37.938209, 49.723482 ] } },
{ "type": "Feature", "properties": { "name": "26th Tank Regiment from the 47th TD" }, "geometry": { "type": "Point", "coordinates": [ 36.888271, 50.380672 ] } },
{ "type": "Feature", "properties": { "name": "138th Separate Guards Motor Rifle Brigade" }, "geometry": { "type": "Point", "coordinates": [ 38.073742, 49.974506 ] } },
{ "type": "Feature", "properties": { "name": "25th Separate Guards Motor Rifle Brigade" }, "geometry": { "type": "Point", "coordinates": [ 36.894206, 50.329475 ] } },
{ "type": "Feature", "properties": { "name": "245th Guards Motor Rifle Regiment" }, "geometry": { "type": "Point", "coordinates": [ 38.105116, 50.240802 ] } },
{ "type": "Feature", "properties": { "name": "shoigists \"storm-z\"" }, "geometry": { "type": "Point", "coordinates": [ 37.693857, 49.783102 ] } },
{ "type": "Feature", "properties": { "name": "385th Artillery Brigade" }, "geometry": { "type": "Point", "coordinates": [ 38.394901, 48.915582 ] } },
{ "type": "Feature", "properties": { "name": "169th separate motorized rifle brigade" }, "geometry": { "type": "Point", "coordinates": [ 38.030876, 49.027054 ] } },
{ "type": "Feature", "properties": { "name": "123rd Artillery Brigade" }, "geometry": { "type": "Point", "coordinates": [ 38.354939, 48.980889 ] } },
{ "type": "Feature", "properties": { "name": "82nd Detached Guards Motorized Rifle Battalion" }, "geometry": { "type": "Point", "coordinates": [ 29.470501, 46.826183 ] } },
{ "type": "Feature", "properties": { "name": "36th Separate Guards Motor Rifle Brigade" }, "geometry": { "type": "Point", "coordinates": [ 37.310001, 47.760726 ] } },
{ "type": "Feature", "properties": { "name": "1843rd motorized rifle battalion" }, "geometry": { "type": "Point", "coordinates": [ 37.779439, 49.823587 ] } },
{ "type": "Feature", "properties": { "name": "347th motorized rifle regiment" }, "geometry": { "type": "Point", "coordinates": [ 37.915387, 49.652886 ] } },
{ "type": "Feature", "properties": { "name": "164th Mountain Motor Rifle Brigade" }, "geometry": { "type": "Point", "coordinates": [ 38.042073, 49.064875 ] } },
{ "type": "Feature", "properties": { "name": "252nd motorized rifle regiment" }, "geometry": { "type": "Point", "coordinates": [ 37.996603, 49.314708 ] } },
{ "type": "Feature", "properties": { "name": "237th tank regiment" }, "geometry": { "type": "Point", "coordinates": [ 38.030252, 49.244374 ] } },
{ "type": "Feature", "properties": { "name": "47th tank division" }, "geometry": { "type": "Point", "coordinates": [ 38.032573, 49.623702 ] } },
{ "type": "Feature", "properties": { "name": "79th Guards Motorized Rifle Regiment" }, "geometry": { "type": "Point", "coordinates": [ 37.914373, 49.882777 ] } },
{ "type": "Feature", "properties": { "name": "9th Guards Artillery Brigade" }, "geometry": { "type": "Point", "coordinates": [ 37.772237, 49.855781 ] } },
{ "type": "Feature", "properties": { "name": "15th Guards Motor Rifle Regiment" }, "geometry": { "type": "Point", "coordinates": [ 37.894622, 49.600375 ] } },
{ "type": "Feature", "properties": { "name": "1st Guards Motor Rifle Regiment" }, "geometry": { "type": "Point", "coordinates": [ 37.911765, 49.592482 ] } },
{ "type": "Feature", "properties": { "name": "153rd Tank Regiment from the 47th TD, 1st TA" }, "geometry": { "type": "Point", "coordinates": [ 36.93112, 50.394129 ] } },
{ "type": "Feature", "properties": { "name": "59th tank regiment (from the composition of 144 MRD)" }, "geometry": { "type": "Point", "coordinates": [ 38.117422, 49.192657 ] } },
{ "type": "Feature", "properties": { "name": "1432nd motorized rifle regiment of territorial troops" }, "geometry": { "type": "Point", "coordinates": [ 37.946836, 49.58761 ] } },
{ "type": "Feature", "properties": { "name": "856th self-propelled artillery regiment (from the composition of 144 MRD)" }, "geometry": { "type": "Point", "coordinates": [ 38.266423, 49.14462 ] } },
{ "type": "Feature", "properties": { "name": "283rd motorizedrifle regiment (from the composition of 144 MRD)" }, "geometry": { "type": "Point", "coordinates": [ 38.094075, 49.114065 ] } },
{ "type": "Feature", "properties": { "name": "380th Motor Rifle Regiment" }, "geometry": { "type": "Point", "coordinates": [ 36.435976, 50.278548 ] } },
{ "type": "Feature", "properties": { "name": "137th Separate Guards Motor Rifle Brigade" }, "geometry": { "type": "Point", "coordinates": [ 37.970347, 49.826804 ] } },
{ "type": "Feature", "properties": { "name": "228th motorizedrifle regiment (from the composition of 90 TD)" }, "geometry": { "type": "Point", "coordinates": [ 37.37612, 48.114835 ] } },
{ "type": "Feature", "properties": { "name": "37th Motor Rifle Regiment" }, "geometry": { "type": "Point", "coordinates": [ 38.042922, 49.039176 ] } },
{ "type": "Feature", "properties": { "name": "30th Engineer Regiment" }, "geometry": { "type": "Point", "coordinates": [ 37.915206, 49.757524 ] } },
{ "type": "Feature", "properties": { "name": "45th Engineer battalion" }, "geometry": { "type": "Point", "coordinates": [ 37.877433, 49.971069 ] } },
{ "type": "Feature", "properties": { "name": "31st Motor Rifle Regiment" }, "geometry": { "type": "Point", "coordinates": [ 38.033343, 49.080264 ] } },
{ "type": "Feature", "properties": { "name": "1432nd motorized rifle regiment" }, "geometry": { "type": "Point", "coordinates": [ 38.006373, 49.479083 ] } },
{ "type": "Feature", "properties": { "name": "752nd motorized rifle regiment" }, "geometry": { "type": "Point", "coordinates": [ 37.976594, 49.360786 ] } },
{ "type": "Feature", "properties": { "name": "1st tank regiment" }, "geometry": { "type": "Point", "coordinates": [ 37.927277, 49.583643 ] } },
{ "type": "Feature", "properties": { "name": "12th tank regiment" }, "geometry": { "type": "Point", "coordinates": [ 37.937799, 49.619443 ] } },
{ "type": "Feature", "properties": { "name": "272nd Motor Rifle Regiment" }, "geometry": { "type": "Point", "coordinates": [ 37.91613, 49.644495 ] } },
{ "type": "Feature", "properties": { "name": "26th Tank Regiment" }, "geometry": { "type": "Point", "coordinates": [ 38.085628, 49.07119 ] } },
{ "type": "Feature", "properties": { "name": "254nd Motor Rifle Regiment" }, "geometry": { "type": "Point", "coordinates": [ 38.060104, 49.216199 ] } },
{ "type": "Feature", "properties": { "name": "7th Motor Rifle Regiment" }, "geometry": { "type": "Point", "coordinates": [ 37.753811, 49.775796 ] } },
{ "type": "Feature", "properties": { "name": "81th self-propelled artillery regiment" }, "geometry": { "type": "Point", "coordinates": [ 33.157751, 46.714321 ] } },
{ "type": "Feature", "properties": { "name": "744th self-propelled artillery regiment (from the composition of 47 TD)" }, "geometry": { "type": "Point", "coordinates": [ 37.939311, 49.665172 ] } },
{ "type": "Feature", "properties": { "name": "433th motorizedrifle regiment (from the composition of 27 MRD)" }, "geometry": { "type": "Point", "coordinates": [ 37.384378, 48.185573 ] } },
{ "type": "Feature", "properties": { "name": "units of the \"African Corps\"" }, "geometry": { "type": "Point", "coordinates": [ 36.518019, 50.289284 ] } },
{ "type": "Feature", "properties": { "name": "18th Motor Rifle Division" }, "geometry": { "type": "Point", "coordinates": [ 36.649163, 50.306321 ] } },
{ "type": "Feature", "properties": { "name": "128th Separate Guards Motor Rifle Brigade" }, "geometry": { "type": "Point", "coordinates": [ 36.889977, 50.311622 ] } },
{ "type": "Feature", "properties": { "name": "71st Guards Motorized Rifle Regiment" }, "geometry": { "type": "Point", "coordinates": [ 36.377381, 51.758616 ] } },
{ "type": "Feature", "properties": { "name": "138th Separate Guards Motor Rifle Brigade" }, "geometry": { "type": "Point", "coordinates": [ 36.931893, 50.308597 ] } },
{ "type": "Feature", "properties": { "name": "83rd Separate Guards Air Assault Brigade" }, "geometry": { "type": "Point", "coordinates": [ 36.923028, 50.302513 ] } },
{ "type": "Feature", "properties": { "name": "2nd Guards Spetsnaz Brigade GRU" }, "geometry": { "type": "Point", "coordinates": [ 36.953262, 50.306241 ] } },
{ "type": "Feature", "properties": { "name": "1009st motorized rifle regiment of territorial troops" }, "geometry": { "type": "Point", "coordinates": [ 36.972305, 50.316477 ] } },
{ "type": "Feature", "properties": { "name": "345th Motor Rifle Regiment" }, "geometry": { "type": "Point", "coordinates": [ 36.508882, 50.26162 ] } },
{ "type": "Feature", "properties": { "name": "177th Separate Regiment of Marines" }, "geometry": { "type": "Point", "coordinates": [ 37.968971, 48.457582 ] } },
{ "type": "Feature", "properties": { "name": "331st Airborne Regiment from the 98th Airborne Division" }, "geometry": { "type": "Point", "coordinates": [ 37.903217, 48.58268 ] } },
{ "type": "Feature", "properties": { "name": "31st Guards Air Assault Brigade" }, "geometry": { "type": "Point", "coordinates": [ 48.239014, 54.446095 ] } },
{ "type": "Feature", "properties": { "name": "13nd squad BARS" }, "geometry": { "type": "Point", "coordinates": [ 38.024031, 48.5937 ] } },
{ "type": "Feature", "properties": { "name": "2nd paratrooper battalion according to the 51st Parachute Regiment" }, "geometry": { "type": "Point", "coordinates": [ 38.989364, 48.686828 ] } },
{ "type": "Feature", "properties": { "name": "9th motorized rifle regiment under the 18th MRD" }, "geometry": { "type": "Point", "coordinates": [ 37.996806, 48.65626 ] } },
{ "type": "Feature", "properties": { "name": "2nd motorized rifle battalion from the 57th SMBr" }, "geometry": { "type": "Point", "coordinates": [ 38.985272, 48.695368 ] } },
{ "type": "Feature", "properties": { "name": "51th Guards Airborne Regiment rom the 106th Airborne Division" }, "geometry": { "type": "Point", "coordinates": [ 38.096436, 48.725938 ] } },
{ "type": "Feature", "properties": { "name": "11th Separate Assault Brigade" }, "geometry": { "type": "Point", "coordinates": [ 35.583696, 51.261853 ] } },
{ "type": "Feature", "properties": { "name": "4th Separate Motorized Rifle Brigade" }, "geometry": { "type": "Point", "coordinates": [ 37.959156, 48.594959 ] } },
{ "type": "Feature", "properties": { "name": "72nd separate motorized rifle brigade" }, "geometry": { "type": "Point", "coordinates": [ 36.707337, 50.31912 ] } },
{ "type": "Feature", "properties": { "name": "217th Airborne Regiment from the 98th Airborne Division" }, "geometry": { "type": "Point", "coordinates": [ 37.90782, 48.622868 ] } },
{ "type": "Feature", "properties": { "name": "200th Separate Motor Rifle Brigade" }, "geometry": { "type": "Point", "coordinates": [ 36.268293, 51.251324 ] } },
{ "type": "Feature", "properties": { "name": "137th Guards Airborne Regiment from the 106th Airborne Division" }, "geometry": { "type": "Point", "coordinates": [ 38.157658, 48.734635 ] } },
{ "type": "Feature", "properties": { "name": "shoigists \"storm-z\"" }, "geometry": { "type": "Point", "coordinates": [ 37.939907, 48.679023 ] } },
{ "type": "Feature", "properties": { "name": "The 3rd motorized rifle battalion from the 123rd SMRB" }, "geometry": { "type": "Point", "coordinates": [ 38.213888, 48.733171 ] } },
{ "type": "Feature", "properties": { "name": "6th Separate Motorized Rifle Regiment (LNR)" }, "geometry": { "type": "Point", "coordinates": [ 38.075024, 48.693 ] } },
{ "type": "Feature", "properties": { "name": "123rd separate motorized rifle brigade (formerly the 2nd Brigade)" }, "geometry": { "type": "Point", "coordinates": [ 38.184473, 48.757614 ] } },
{ "type": "Feature", "properties": { "name": "14th Territorial Defense Battalion \"Prizrak\" (LPR)" }, "geometry": { "type": "Point", "coordinates": [ 38.384925, 48.747771 ] } },
{ "type": "Feature", "properties": { "name": "2nd Army Corps" }, "geometry": { "type": "Point", "coordinates": [ 39.315172, 48.568716 ] } },
{ "type": "Feature", "properties": { "name": "10th artillery brigade of the LPR" }, "geometry": { "type": "Point", "coordinates": [ 38.095696, 48.660589 ] } },
{ "type": "Feature", "properties": { "name": "Rosguard unit \"Akhmat\"" }, "geometry": { "type": "Point", "coordinates": [ 37.964116, 48.471055 ] } },
{ "type": "Feature", "properties": { "name": "shoigists \"storm-z\"" }, "geometry": { "type": "Point", "coordinates": [ 37.992233, 48.705179 ] } },
{ "type": "Feature", "properties": { "name": "102nd Motor Rifle Regiment" }, "geometry": { "type": "Point", "coordinates": [ 37.947488, 48.57923 ] } },
{ "type": "Feature", "properties": { "name": "shoigists \"storm-v\"" }, "geometry": { "type": "Point", "coordinates": [ 38.026127, 48.492461 ] } },
{ "type": "Feature", "properties": { "name": "6th Separate Guards Motor Rifle Brigade" }, "geometry": { "type": "Point", "coordinates": [ 38.253467, 48.870642 ] } },
{ "type": "Feature", "properties": { "name": "1307th Motor Rifle Regiment" }, "geometry": { "type": "Point", "coordinates": [ 37.963369, 48.545787 ] } },
{ "type": "Feature", "properties": { "name": "Volunteer assault corps" }, "geometry": { "type": "Point", "coordinates": [ 37.955229, 48.636387 ] } },
{ "type": "Feature", "properties": { "name": "51st motorized rifle regiment" }, "geometry": { "type": "Point", "coordinates": [ 38.279301, 48.787454 ] } },
{ "type": "Feature", "properties": { "name": "119th motorized rifle regiment" }, "geometry": { "type": "Point", "coordinates": [ 38.239818, 48.75306 ] } },
{ "type": "Feature", "properties": { "name": "119th Guards Airborne Regiment" }, "geometry": { "type": "Point", "coordinates": [ 38.136227, 48.731416 ] } },
{ "type": "Feature", "properties": { "name": "1008st motorized rifle regiment of territorial troops" }, "geometry": { "type": "Point", "coordinates": [ 37.992264, 48.541 ] } },
{ "type": "Feature", "properties": { "name": "1194st motorized rifle regiment of territorial troops" }, "geometry": { "type": "Point", "coordinates": [ 38.019902, 48.505642 ] } },
{ "type": "Feature", "properties": { "name": "1442 motorized rifle regiment (military unit 95383)" }, "geometry": { "type": "Point", "coordinates": [ 37.99992, 48.527873 ] } },
{ "type": "Feature", "properties": { "name": "299th Airborne Regiment from the 98th Airborne Division" }, "geometry": { "type": "Point", "coordinates": [ 37.919266, 48.627254 ] } },
{ "type": "Feature", "properties": { "name": "7st Air Assault Brigade \"saint heorhiy\"" }, "geometry": { "type": "Point", "coordinates": [ 37.908772, 48.607723 ] } },
{ "type": "Feature", "properties": { "name": "88th separate motorized rifle brigade" }, "geometry": { "type": "Point", "coordinates": [ 37.989248, 48.504784 ] } },
{ "type": "Feature", "properties": { "name": "80th Guards Tank Red Banner Regiment" }, "geometry": { "type": "Point", "coordinates": [ 37.383386, 48.126273 ] } },
{ "type": "Feature", "properties": { "name": "/7th Military Base (Abkhazia)" }, "geometry": { "type": "Point", "coordinates": [ 37.995285, 48.518465 ] } },
{ "type": "Feature", "properties": { "name": "85th separate motorized rifle brigade" }, "geometry": { "type": "Point", "coordinates": [ 37.98572, 48.525517 ] } },
{ "type": "Feature", "properties": { "name": "6th Tank Regiment" }, "geometry": { "type": "Point", "coordinates": [ 37.407761, 48.091663 ] } },
{ "type": "Feature", "properties": { "name": "74th Separate Guards Motor Rifle Brigade" }, "geometry": { "type": "Point", "coordinates": [ 37.62396, 48.25197 ] } },
{ "type": "Feature", "properties": { "name": "35th Separate Guards Motor Rifle Brigade" }, "geometry": { "type": "Point", "coordinates": [ 37.470259, 48.261683 ] } },
{ "type": "Feature", "properties": { "name": "239th tank regiment (from the composition of 90 TD)" }, "geometry": { "type": "Point", "coordinates": [ 37.371716, 48.091434 ] } },
{ "type": "Feature", "properties": { "name": "30th separate motorized rifle brigade" }, "geometry": { "type": "Point", "coordinates": [ 37.367032, 48.227117 ] } },
{ "type": "Feature", "properties": { "name": "155th Separate Brigade of Marines" }, "geometry": { "type": "Point", "coordinates": [ 35.573723, 50.853289 ] } },
{ "type": "Feature", "properties": { "name": "27th Motor Rifle Division (formerly the 21th Brigade)" }, "geometry": { "type": "Point", "coordinates": [ 37.65739, 48.195006 ] } },
{ "type": "Feature", "properties": { "name": "55th Mountain Motor Rifle Brigade" }, "geometry": { "type": "Point", "coordinates": [ 37.474372, 48.237941 ] } },
{ "type": "Feature", "properties": { "name": "15th Separate Motor Rifle Brigade" }, "geometry": { "type": "Point", "coordinates": [ 37.348157, 48.215215 ] } },
{ "type": "Feature", "properties": { "name": "8th Combined Arms Army" }, "geometry": { "type": "Point", "coordinates": [ 40.093701, 47.422151 ] } },
{ "type": "Feature", "properties": { "name": "150th Motorized Rifle Division" }, "geometry": { "type": "Point", "coordinates": [ 37.541439, 47.940643 ] } },
{ "type": "Feature", "properties": { "name": "238th Artillery Brigade" }, "geometry": { "type": "Point", "coordinates": [ 37.391062, 48.150016 ] } },
{ "type": "Feature", "properties": { "name": "20th Motorized Rifle Division" }, "geometry": { "type": "Point", "coordinates": [ 37.782543, 48.03331 ] } },
{ "type": "Feature", "properties": { "name": "33rd Guards Motorized Rifle Regiment" }, "geometry": { "type": "Point", "coordinates": [ 37.54644, 47.865581 ] } },
{ "type": "Feature", "properties": { "name": "255th Guards Motorized Rifle Regiment" }, "geometry": { "type": "Point", "coordinates": [ 37.466707, 47.93326 ] } },
{ "type": "Feature", "properties": { "name": "1st Army Corps (DPR)" }, "geometry": { "type": "Point", "coordinates": [ 37.805545, 48.012949 ] } },
{ "type": "Feature", "properties": { "name": "Somalia Battalion" }, "geometry": { "type": "Point", "coordinates": [ 37.677701, 48.0985 ] } },
{ "type": "Feature", "properties": { "name": "Piatnashka Battalion" }, "geometry": { "type": "Point", "coordinates": [ 36.317551, 51.142254 ] } },
{ "type": "Feature", "properties": { "name": "1st separate motorized rifle \"Sloviansk\" brigade" }, "geometry": { "type": "Point", "coordinates": [ 37.357393, 48.109704 ] } },
{ "type": "Feature", "properties": { "name": "2nd battalion of territorial defense of the DPR" }, "geometry": { "type": "Point", "coordinates": [ 37.596204, 48.036507 ] } },
{ "type": "Feature", "properties": { "name": "9th separate motorized rifle brigade" }, "geometry": { "type": "Point", "coordinates": [ 37.387119, 48.095473 ] } },
{ "type": "Feature", "properties": { "name": "114th separate motorized rifle brigade" }, "geometry": { "type": "Point", "coordinates": [ 37.363795, 48.161026 ] } },
{ "type": "Feature", "properties": { "name": "109th Rifle Regiment DPR" }, "geometry": { "type": "Point", "coordinates": [ 37.807076, 48.227783 ] } },
{ "type": "Feature", "properties": { "name": "117th motorized rifle regiment DPR" }, "geometry": { "type": "Point", "coordinates": [ 37.692292, 48.079132 ] } },
{ "type": "Feature", "properties": { "name": "132nd separate motorized rifle brigade (formerly the 3rd Brigade \"Berkut\")" }, "geometry": { "type": "Point", "coordinates": [ 37.878071, 48.26894 ] } },
{ "type": "Feature", "properties": { "name": "87th Rifle Regiment" }, "geometry": { "type": "Point", "coordinates": [ 37.779341, 48.09836 ] } },
{ "type": "Feature", "properties": { "name": "3rd Motorized Rifle Battalion from the 114th Infantry Brigade" }, "geometry": { "type": "Point", "coordinates": [ 37.550343, 47.997272 ] } },
{ "type": "Feature", "properties": { "name": "277th Rifle Battalion" }, "geometry": { "type": "Point", "coordinates": [ 37.707028, 48.209437 ] } },
{ "type": "Feature", "properties": { "name": "Part 111th separate rifle regiment" }, "geometry": { "type": "Point", "coordinates": [ 37.699761, 48.041801 ] } },
{ "type": "Feature", "properties": { "name": "shoigists \"storm-z\"" }, "geometry": { "type": "Point", "coordinates": [ 37.798447, 48.046424 ] } },
{ "type": "Feature", "properties": { "name": "103rd Motorized Rifle Regiment (from the composition of 150 MRD)" }, "geometry": { "type": "Point", "coordinates": [ 37.470196, 47.955663 ] } },
{ "type": "Feature", "properties": { "name": "10-й ОТБ" }, "geometry": { "type": "Point", "coordinates": [ 37.724328, 48.093797 ] } },
{ "type": "Feature", "properties": { "name": "5th separate motorized rifle brigade" }, "geometry": { "type": "Point", "coordinates": [ 37.492426, 48.017302 ] } },
{ "type": "Feature", "properties": { "name": "110th Separate Motorized Rifle Brigade" }, "geometry": { "type": "Point", "coordinates": [ 37.578008, 48.023107 ] } },
{ "type": "Feature", "properties": { "name": "39th Separate Guards Motor Rifle Brigade" }, "geometry": { "type": "Point", "coordinates": [ 37.426509, 47.806558 ] } },
{ "type": "Feature", "properties": { "name": "The 80th separate intelligence battalion \"Sparta\" named Fried Cock" }, "geometry": { "type": "Point", "coordinates": [ 37.630883, 48.104647 ] } },
{ "type": "Feature", "properties": { "name": "10th tank regiment" }, "geometry": { "type": "Point", "coordinates": [ 37.499378, 47.863105 ] } },
{ "type": "Feature", "properties": { "name": "139th Separate Guards Motor Rifle Battalion" }, "geometry": { "type": "Point", "coordinates": [ 37.498058, 47.807195 ] } },
{ "type": "Feature", "properties": { "name": "115th separate motorized rifle brigade" }, "geometry": { "type": "Point", "coordinates": [ 37.686152, 48.157832 ] } },
{ "type": "Feature", "properties": { "name": "1465th motorized rifle regiment of territorial troops" }, "geometry": { "type": "Point", "coordinates": [ 37.54751, 47.884141 ] } },
{ "type": "Feature", "properties": { "name": "1219th motorized rifle regiment of territorial troops" }, "geometry": { "type": "Point", "coordinates": [ 37.57429, 47.851436 ] } },
{ "type": "Feature", "properties": { "name": "18th Machine Gun Artillery Division" }, "geometry": { "type": "Point", "coordinates": [ 37.45246, 47.820646 ] } },
{ "type": "Feature", "properties": { "name": "1487th motorized rifle regiment of territorial troops" }, "geometry": { "type": "Point", "coordinates": [ 37.758085, 48.08444 ] } },
{ "type": "Feature", "properties": { "name": "1140th motorized rifle regiment of territorial troops" }, "geometry": { "type": "Point", "coordinates": [ 37.698574, 48.173363 ] } },
{ "type": "Feature", "properties": { "name": "163rd tank regiment" }, "geometry": { "type": "Point", "coordinates": [ 37.514775, 47.91991 ] } },
{ "type": "Feature", "properties": { "name": "242th Guards Motorized Rifle Regiment" }, "geometry": { "type": "Point", "coordinates": [ 37.483424, 47.919112 ] } },
{ "type": "Feature", "properties": { "name": "57th Motor Rifle Regiment" }, "geometry": { "type": "Point", "coordinates": [ 37.97568, 48.55281 ] } },
{ "type": "Feature", "properties": { "name": "1472th motorized rifle regiment of territorial troops" }, "geometry": { "type": "Point", "coordinates": [ 37.487151, 47.837886 ] } },
{ "type": "Feature", "properties": { "name": "506th Motorized Rifle Regiment" }, "geometry": { "type": "Point", "coordinates": [ 37.380564, 48.176752 ] } },
{ "type": "Feature", "properties": { "name": "589th Motorized Rifle Regiment" }, "geometry": { "type": "Point", "coordinates": [ 37.371611, 48.193186 ] } },
{ "type": "Feature", "properties": { "name": "104th Airborne Assault Regiment from the 76th Division" }, "geometry": { "type": "Point", "coordinates": [ 35.795701, 47.436521 ] } },
{ "type": "Feature", "properties": { "name": "24th Motor Rifle Regiment" }, "geometry": { "type": "Point", "coordinates": [ 32.696796, 46.616266 ] } },
{ "type": "Feature", "properties": { "name": "57th separate motorized rifle brigade" }, "geometry": { "type": "Point", "coordinates": [ 36.940592, 47.636955 ] } },
{ "type": "Feature", "properties": { "name": "127th separate intelligence brigade" }, "geometry": { "type": "Point", "coordinates": [ 32.625412, 46.543008 ] } },
{ "type": "Feature", "properties": { "name": "540th Detached Control Battalion" }, "geometry": { "type": "Point", "coordinates": [ 29.64741, 46.821465 ] } },
{ "type": "Feature", "properties": { "name": "58th combined-arms army" }, "geometry": { "type": "Point", "coordinates": [ 35.365498, 46.846524 ] } },
{ "type": "Feature", "properties": { "name": "247th Guards Air Assault Regiment" }, "geometry": { "type": "Point", "coordinates": [ 35.979671, 47.472499 ] } },
{ "type": "Feature", "properties": { "name": "234th Airborne Assault Regiment from the 76th Division" }, "geometry": { "type": "Point", "coordinates": [ 35.75659, 47.458439 ] } },
{ "type": "Feature", "properties": { "name": "237th Airborne Assault Regiment from the 76th Division" }, "geometry": { "type": "Point", "coordinates": [ 35.736904, 47.467707 ] } },
{ "type": "Feature", "properties": { "name": "113th Separate Guards Motorized Rifle Battalion" }, "geometry": { "type": "Point", "coordinates": [ 29.697533, 46.765054 ] } },
{ "type": "Feature", "properties": { "name": "5th separate tank brigade" }, "geometry": { "type": "Point", "coordinates": [ 36.816414, 47.755804 ] } },
{ "type": "Feature", "properties": { "name": "37th Separate Guards Motor Rifle Brigade" }, "geometry": { "type": "Point", "coordinates": [ 36.818487, 47.749827 ] } },
{ "type": "Feature", "properties": { "name": "136th motorized rifle brigade" }, "geometry": { "type": "Point", "coordinates": [ 35.824718, 47.407478 ] } },
{ "type": "Feature", "properties": { "name": "19th Motorized Rifle Division" }, "geometry": { "type": "Point", "coordinates": [ 35.71191, 47.249824 ] } },
{ "type": "Feature", "properties": { "name": "121st Regiment of the Mobilization Reserve of the DPR" }, "geometry": { "type": "Point", "coordinates": [ 36.64054, 47.35927 ] } },
{ "type": "Feature", "properties": { "name": "123st Regiment (DPR)" }, "geometry": { "type": "Point", "coordinates": [ 37.224003, 47.708017 ] } },
{ "type": "Feature", "properties": { "name": "125st Regiment (DPR)" }, "geometry": { "type": "Point", "coordinates": [ 35.451394, 47.475055 ] } },
{ "type": "Feature", "properties": { "name": "131st Regiment (DPR)" }, "geometry": { "type": "Point", "coordinates": [ 36.933054, 47.710405 ] } },
{ "type": "Feature", "properties": { "name": "429th Motorized Rifle Regiment" }, "geometry": { "type": "Point", "coordinates": [ 35.378457, 47.505871 ] } },
{ "type": "Feature", "properties": { "name": "503rd Motorized Rifle Regiment" }, "geometry": { "type": "Point", "coordinates": [ 35.689879, 47.499792 ] } },
{ "type": "Feature", "properties": { "name": "1430th motorized rifle regiment" }, "geometry": { "type": "Point", "coordinates": [ 35.719134, 47.206718 ] } },
{ "type": "Feature", "properties": { "name": "143rd Motorized Rifle Regiment from the 127th MRD" }, "geometry": { "type": "Point", "coordinates": [ 36.616932, 47.704748 ] } },
{ "type": "Feature", "properties": { "name": "42nd Motorized Rifle Division" }, "geometry": { "type": "Point", "coordinates": [ 36.217361, 47.194163 ] } },
{ "type": "Feature", "properties": { "name": "78th motorized rifle regiment" }, "geometry": { "type": "Point", "coordinates": [ 35.795562, 47.379702 ] } },
{ "type": "Feature", "properties": { "name": "291st Guards Motorized Rifle Regiment" }, "geometry": { "type": "Point", "coordinates": [ 35.74276, 47.241417 ] } },
{ "type": "Feature", "properties": { "name": "Rosguard unit \"Akhmat-Centre\"" }, "geometry": { "type": "Point", "coordinates": [ 34.526657, 47.477664 ] } },
{ "type": "Feature", "properties": { "name": "10th Separate Special Purpose Brigade" }, "geometry": { "type": "Point", "coordinates": [ 33.934547, 47.145246 ] } },
{ "type": "Feature", "properties": { "name": "14th separate special purpose brigade" }, "geometry": { "type": "Point", "coordinates": [ 37.226861, 47.753304 ] } },
{ "type": "Feature", "properties": { "name": "40th Naval Infantry Brigade" }, "geometry": { "type": "Point", "coordinates": [ 36.82194, 47.740099 ] } },
{ "type": "Feature", "properties": { "name": "102nd separate brigade of operational assignment" }, "geometry": { "type": "Point", "coordinates": [ 36.803685, 46.761319 ] } },
{ "type": "Feature", "properties": { "name": "Rosguard unit \"Akhmat-South\"" }, "geometry": { "type": "Point", "coordinates": [ 34.58656, 47.512283 ] } },
{ "type": "Feature", "properties": { "name": "5th Combined Arms Army" }, "geometry": { "type": "Point", "coordinates": [ 36.766309, 47.660398 ] } },
{ "type": "Feature", "properties": { "name": "439th Guards Rocket Artillery Brigade" }, "geometry": { "type": "Point", "coordinates": [ 32.325268, 46.334097 ] } },
{ "type": "Feature", "properties": { "name": "49th combined-arms army (RF)" }, "geometry": { "type": "Point", "coordinates": [ 33.542459, 46.380192 ] } },
{ "type": "Feature", "properties": { "name": "34th Separate Motorized Rifle Brigade" }, "geometry": { "type": "Point", "coordinates": [ 36.795616, 47.740328 ] } },
{ "type": "Feature", "properties": { "name": "205th Separate Motorized Rifle Brigade" }, "geometry": { "type": "Point", "coordinates": [ 33.391302, 46.737739 ] } },
{ "type": "Feature", "properties": { "name": "227th Artillery Brigade" }, "geometry": { "type": "Point", "coordinates": [ 33.464353, 46.644692 ] } },
{ "type": "Feature", "properties": { "name": "385th  Motorized Rifle Regiment" }, "geometry": { "type": "Point", "coordinates": [ 32.904382, 46.673229 ] } },
{ "type": "Feature", "properties": { "name": "22nd Army Corps" }, "geometry": { "type": "Point", "coordinates": [ 32.899161, 46.160704 ] } },
{ "type": "Feature", "properties": { "name": "126th Separate Guards Coastal Defense Brigade" }, "geometry": { "type": "Point", "coordinates": [ 32.964566, 46.489628 ] } },
{ "type": "Feature", "properties": { "name": "11th separate motorized rifle regiment" }, "geometry": { "type": "Point", "coordinates": [ 36.82204, 47.724338 ] } },
{ "type": "Feature", "properties": { "name": "shoigists \"storm-z\"" }, "geometry": { "type": "Point", "coordinates": [ 36.678423, 47.704345 ] } },
{ "type": "Feature", "properties": { "name": "38th Separate Motorized Rifle Brigade" }, "geometry": { "type": "Point", "coordinates": [ 35.911839, 51.609208 ] } },
{ "type": "Feature", "properties": { "name": "69th Separate Motorized Rifle Brigade" }, "geometry": { "type": "Point", "coordinates": [ 36.111335, 47.562474 ] } },
{ "type": "Feature", "properties": { "name": "64th Separate Motorized Rifle Brigade" }, "geometry": { "type": "Point", "coordinates": [ 35.791039, 51.60651 ] } },
{ "type": "Feature", "properties": { "name": "60th Separate Motorized Rifle Brigade" }, "geometry": { "type": "Point", "coordinates": [ 36.785789, 47.748521 ] } },
{ "type": "Feature", "properties": { "name": "394th Motorized Rifle Regiment" }, "geometry": { "type": "Point", "coordinates": [ 36.805725, 47.750442 ] } },
{ "type": "Feature", "properties": { "name": "336th Separate Brigade of Marines" }, "geometry": { "type": "Point", "coordinates": [ 36.57013, 47.660641 ] } },
{ "type": "Feature", "properties": { "name": "114th Motorized Rifle Regiment" }, "geometry": { "type": "Point", "coordinates": [ 36.772235, 47.74965 ] } },
{ "type": "Feature", "properties": { "name": "810th Naval Infantry Brigade" }, "geometry": { "type": "Point", "coordinates": [ 35.139598, 51.502047 ] } },
{ "type": "Feature", "properties": { "name": "BARS \"Kherson\"" }, "geometry": { "type": "Point", "coordinates": [ 32.706696, 46.439712 ] } },
{ "type": "Feature", "properties": { "name": "7th Airborne Assault Division" }, "geometry": { "type": "Point", "coordinates": [ 35.611532, 47.32213 ] } },
{ "type": "Feature", "properties": { "name": "417th separate reconnaissance battalion" }, "geometry": { "type": "Point", "coordinates": [ 36.005389, 47.421355 ] } },
{ "type": "Feature", "properties": { "name": "3rd squad BARS" }, "geometry": { "type": "Point", "coordinates": [ 36.167552, 47.207247 ] } },
{ "type": "Feature", "properties": { "name": "125th separate motorized rifle brigade" }, "geometry": { "type": "Point", "coordinates": [ 36.878377, 47.703324 ] } },
{ "type": "Feature", "properties": { "name": "116th Rifle Regiment" }, "geometry": { "type": "Point", "coordinates": [ 37.36771, 47.738933 ] } },
{ "type": "Feature", "properties": { "name": "1st squad BARS" }, "geometry": { "type": "Point", "coordinates": [ 36.352802, 47.605178 ] } },
{ "type": "Feature", "properties": { "name": "11th squad BARS" }, "geometry": { "type": "Point", "coordinates": [ 36.189366, 47.20041 ] } },
{ "type": "Feature", "properties": { "name": "14th squad BARS" }, "geometry": { "type": "Point", "coordinates": [ 36.142728, 47.21465 ] } },
{ "type": "Feature", "properties": { "name": "218st Tank Regiment" }, "geometry": { "type": "Point", "coordinates": [ 36.800158, 47.748719 ] } },
{ "type": "Feature", "properties": { "name": "\"Bashkortostan\" regiment" }, "geometry": { "type": "Point", "coordinates": [ 36.802832, 46.921414 ] } },
{ "type": "Feature", "properties": { "name": "1822nd battalion" }, "geometry": { "type": "Point", "coordinates": [ 32.99854, 46.686263 ] } },
{ "type": "Feature", "properties": { "name": "210th motorized rifle regiment" }, "geometry": { "type": "Point", "coordinates": [ 35.873082, 47.399846 ] } },
{ "type": "Feature", "properties": { "name": "100th separate reconnaissance battalion" }, "geometry": { "type": "Point", "coordinates": [ 36.003544, 47.447116 ] } },
{ "type": "Feature", "properties": { "name": "108th Airborne Assault Regiment" }, "geometry": { "type": "Point", "coordinates": [ 35.968852, 47.452423 ] } },
{ "type": "Feature", "properties": { "name": "56th Air Assault Regiment" }, "geometry": { "type": "Point", "coordinates": [ 34.725568, 51.344905 ] } },
{ "type": "Feature", "properties": { "name": "22nd separate special purpose brigade" }, "geometry": { "type": "Point", "coordinates": [ 36.013814, 47.504322 ] } },
{ "type": "Feature", "properties": { "name": "45th Guards Spetsnaz Brigade" }, "geometry": { "type": "Point", "coordinates": [ 35.43861, 47.475418 ] } },
{ "type": "Feature", "properties": { "name": "Rosguard unit \"Akhmat-East\"" }, "geometry": { "type": "Point", "coordinates": [ 35.690589, 47.421471 ] } },
{ "type": "Feature", "properties": { "name": "201st motorized rifle regiment" }, "geometry": { "type": "Point", "coordinates": [ 35.914781, 47.402428 ] } },
{ "type": "Feature", "properties": { "name": "1445th motorized rifle regiment" }, "geometry": { "type": "Point", "coordinates": [ 33.14807, 46.732525 ] } },
{ "type": "Feature", "properties": { "name": "1152nd motorized rifle regiment" }, "geometry": { "type": "Point", "coordinates": [ 35.797021, 47.424286 ] } },
{ "type": "Feature", "properties": { "name": "shoigists \"storm-z\"" }, "geometry": { "type": "Point", "coordinates": [ 37.2737, 47.734803 ] } },
{ "type": "Feature", "properties": { "name": "shoigists \"storm-z\"" }, "geometry": { "type": "Point", "coordinates": [ 33.230691, 46.722012 ] } },
{ "type": "Feature", "properties": { "name": "144th Separate Motorized Rifle Brigade" }, "geometry": { "type": "Point", "coordinates": [ 32.843763, 46.641637 ] } },
{ "type": "Feature", "properties": { "name": "26-th motorized rifle regiment" }, "geometry": { "type": "Point", "coordinates": [ 33.066674, 46.702774 ] } },
{ "type": "Feature", "properties": { "name": "328th Airborne Assault Regiment" }, "geometry": { "type": "Point", "coordinates": [ 33.038673, 46.673046 ] } },
{ "type": "Feature", "properties": { "name": "337th Airborne Assault Regiment" }, "geometry": { "type": "Point", "coordinates": [ 33.08728, 46.674388 ] } },
{ "type": "Feature", "properties": { "name": "4th squad BARS" }, "geometry": { "type": "Point", "coordinates": [ 33.157107, 46.698514 ] } },
{ "type": "Feature", "properties": { "name": "33rd squad BARS \"vosiliy morgeloff\"" }, "geometry": { "type": "Point", "coordinates": [ 32.919053, 46.568709 ] } },
{ "type": "Feature", "properties": { "name": "345th Airborne Assault Regiment" }, "geometry": { "type": "Point", "coordinates": [ 33.205735, 46.738824 ] } },
{ "type": "Feature", "properties": { "name": "70th motorized rifle regiment" }, "geometry": { "type": "Point", "coordinates": [ 35.841878, 47.407416 ] } },
{ "type": "Feature", "properties": { "name": "17th tank regiment" }, "geometry": { "type": "Point", "coordinates": [ 33.132505, 46.707022 ] } },
{ "type": "Feature", "properties": { "name": "28-th motorized rifle regiment" }, "geometry": { "type": "Point", "coordinates": [ 33.103695, 46.708637 ] } },
{ "type": "Feature", "properties": { "name": "Air Assault Brigade \"Vitirany\"" }, "geometry": { "type": "Point", "coordinates": [ 37.766238, 48.113708 ] } },
{ "type": "Feature", "properties": { "name": "1461st motorized rifle regiment of territorial troops" }, "geometry": { "type": "Point", "coordinates": [ 36.763031, 47.719574 ] } },
{ "type": "Feature", "properties": { "name": "14th Spetsnaz Brigade" }, "geometry": { "type": "Point", "coordinates": [ 36.750258, 47.667673 ] } },
{ "type": "Feature", "properties": { "name": "428th Motorized Rifle Regiment" }, "geometry": { "type": "Point", "coordinates": [ 37.400919, 48.104706 ] } },
{ "type": "Feature", "properties": { "name": "95th Separate Sapper Regiment" }, "geometry": { "type": "Point", "coordinates": [ 37.299516, 47.754156 ] } },
{ "type": "Feature", "properties": { "name": "58th Separate Special Purpose Battalion" }, "geometry": { "type": "Point", "coordinates": [ 37.935846, 48.59396 ] } }
]
}
